[
  {
    "start": "2022-04-04",
    "end": "2022-05-04",
    "city": "Abuja",
    "tag": "Safari",
    "id": "1",
    "long": "9.320677",
    "lat": "26.79143"
  },
  {
    "start": "2022-04-08",
    "end": "2022-04-23",
    "tag": "estate",
    "lat": "51.50853",
    "city": "London",
    "id": 2643743,
    "long": "-0.12574"
  },
  {
    "start": "2022-04-08",
    "end": "2022-04-16",
    "tag": "tour-de-europe",
    "lat": "48.85341",
    "city": "Paris",
    "id": 2988507,
    "long": "2.3488"
  },
  {
    "start": "2022-04-29",
    "end": "2022-05-08",
    "tag": "ECOWAS trip",
    "lat": "5.55602",
    "city": "Accra",
    "id": 2306104,
    "long": "-0.1969"
  },
  {
    "start": "2022-03-28",
    "end": "2022-04-02",
    "tag": "tour-de-europe",
    "lat": "52.52437",
    "city": "Berlin",
    "id": 2950159,
    "long": "13.41053"
  }
]